{
  "protocolSection": {
    "identificationModule": {
      "nctId": "NCT00490139",
      "nctIdAliases": [
        "NCT00609024"
      ],
      "orgStudyIdInfo": {
        "id": "EGF106708"
      },
      "secondaryIdInfos": [
        {
          "id": "CLAP016B2301",
          "type": "OTHER",
          "domain": "Novartis"
        },
        {
          "id": "2006-000562-36",
          "type": "EUDRACT_NUMBER"
        }
      ],
      "organization": {
        "fullName": "Novartis",
        "class": "INDUSTRY"
      },
      "briefTitle": "ALTTO (Adjuvant Lapatinib And/Or Trastuzumab Treatment Optimisation) Study; BIG 2-06/N063D",
      "officialTitle": "A Randomised, Multi-centre, Open-label, Phase III Study of Adjuvant Lapatinib, Trastuzumab, Their Sequence and Their Combination in Patients With HER2/ErbB2 Positive Primary Breast Cancer",
      "acronym": "ALTTO"
    },
    "statusModule": {
      "statusVerifiedDate": "2025-03",
      "overallStatus": "COMPLETED",
      "expandedAccessInfo": {
        "hasExpandedAccess": false
      },
      "startDateStruct": {
        "date": "2007-05-16",
        "type": "ACTUAL"
      },
      "primaryCompletionDateStruct": {
        "date": "2013-12-06",
        "type": "ACTUAL"
      },
      "completionDateStruct": {
        "date": "2021-07-01",
        "type": "ACTUAL"
      },
      "studyFirstSubmitDate": "2007-06-20",
      "studyFirstSubmitQcDate": "2007-06-20",
      "studyFirstPostDateStruct": {
        "date": "2007-06-22",
        "type": "ESTIMATED"
      },
      "resultsFirstSubmitDate": "2014-07-30",
      "resultsFirstSubmitQcDate": "2014-07-30",
      "resultsFirstPostDateStruct": {
        "date": "2014-08-18",
        "type": "ESTIMATED"
      },
      "lastUpdateSubmitDate": "2025-03-04",
      "lastUpdatePostDateStruct": {
        "date": "2025-03-21",
        "type": "ACTUAL"
      }
    },
    "sponsorCollaboratorsModule": {
      "responsibleParty": {
        "type": "SPONSOR"
      },
      "leadSponsor": {
        "name": "Novartis Pharmaceuticals",
        "class": "INDUSTRY"
      },
      "collaborators": [
        {
          "name": "North Central Cancer Treatment Group",
          "class": "NETWORK"
        },
        {
          "name": "National Cancer Institute (NCI)",
          "class": "NIH"
        },
        {
          "name": "Breast International Group",
          "class": "OTHER"
        },
        {
          "name": "Canadian Cancer Trials Group",
          "class": "NETWORK"
        }
      ]
    },
    "oversightModule": {
      "oversightHasDmc": true,
      "isFdaRegulatedDrug": true,
      "isFdaRegulatedDevice": false
    },
    "descriptionModule": {
      "briefSummary": "This was a four-arm (parallel group) randomized, open-label, multicenter Phase 3 study to investigate the use of a combination of Lapatinib and Trastuzumab, a sequence of Trastuzumab followed by Lapatinib, and Lapatinib alone, compared to Trastuzumab alone in the adjuvant treatment of Human Epidermal Growth Factor Receptor 2 (HER2) positive early breast cancer.",
      "detailedDescription": "Treatment allocation was stratified by blocked randomization, with three stratification factors:\n\n* Hormone receptor status: Estrogen Receptor (ER) and/or Progesterone Receptor (PgR) positive versus both negative.\n* Axillary lymph node involvement: not assessed because of neoadjuvant chemotherapy versus node negative versus 1-3 positive nodes versus 4 or more positive nodes.\n* Timing of adjuvant chemotherapy: concurrently with taxanes and targeted therapy (Design 2) and concurrently with non-anthracycline-based platinum chemotherapy and targeted therapy (Design 2B) versus all other chemotherapy completed before randomization (Design 1). Treatments delivered differed according to the timing and type of adjuvant chemotherapy.\n\nThe primary objective of this study was to compare disease-free survival (DFS) in subjects with HER2 overexpressing and/or amplified breast cancer randomized to trastuzumab for one year versus lapatinib for one year versus trastuzumab (12 or 18 weeks, according to assigned design) followed by a six week treatment-free interval followed by lapatinib (28 or 34 weeks, according to assigned design) versus trastuzumab in combination with lapatinib for one year (52 weeks).\n\nSecondary objectives included treatment comparisons with respect to overall survival, time to recurrence, time to distant recurrence, safety and tolerability, and incidence of brain metastasis.\n\nBased on the recommendation of the Independent Data Monitoring Committee (IDMC) at the first interim analysis (18-Aug-2011), the Lapatinib alone arm was discontinued prior to primary analysis due to futility. The IDMC also stated that the other three arms (trastuzumab alone, sequential trastuzumab/lapatinib arm and the combination arm) could continued as planned with no changes."
    },
    "conditionsModule": {
      "conditions": [
        "Neoplasms, Breast"
      ],
      "keywords": [
        "Adjuvant",
        "ErbB2-overexpressing",
        "Early stage breast cancer",
        "HER2/neu gene amplified"
      ]
    },
    "designModule": {
      "studyType": "INTERVENTIONAL",
      "phases": [
        "PHASE3"
      ],
      "designInfo": {
        "allocation": "RANDOMIZED",
        "interventionModel": "PARALLEL",
        "primaryPurpose": "TREATMENT",
        "maskingInfo": {
          "masking": "NONE"
        }
      },
      "enrollmentInfo": {
        "count": 8381,
        "type": "ACTUAL"
      }
    },
    "armsInterventionsModule": {
      "armGroups": [
        {
          "label": "Lapatinib plus Trastuzumab",
          "type": "EXPERIMENTAL",
          "description": "Design 1: Oral lapatinib 1000 mg daily concurrent with trastuzumab 8 mg/kg IV loading dose followed by 6mg/kg IV every 3 weeks (52 weeks total).\n\nDesign 2: Trastuzumab (4mg/kg loading dose followed by 2mg/kg IV weekly) concurrent with oral lapatinib 750 mg daily and either paclitaxel 80mg/m2 IV weekly for 12 weeks OR docetaxel 75mg/m2 every 21 days for 4 cycles (12 weeks). After completion of chemotherapy, the dose of lapatinib will be increased to 1000mg daily concurrently with trastuzumab every 3 weeks (6mg/kg without loading dose) for an additional 40 weeks (52 weeks total).\n\nDesign 2B: Docetaxel 75mg/m2 and carboplatin AUC 6 every 3 weeks for 6 cycles (18 weeks) administered concurrently with oral lapatinib 750mg plus weekly trastuzumab (4mg/kg IV loading dose followed by 2mg/kg IV. After the completion of chemotherapy, trastuzumab will be administered every 3 weeks (6mg/kg without loading dose) concurrent with lapatinib 1000mg daily for an additional 40 weeks (52 weeks total).",
          "interventionNames": [
            "Drug: Lapatinib",
            "Biological: Trastuzumab"
          ]
        },
        {
          "label": "Trastuzumab followed by Lapatinib",
          "type": "EXPERIMENTAL",
          "description": "Design 1: Trastuzumab (4mg/kg IV loading dose followed by 2mg/kg IV weekly) for 12 weeks followed by a 6 week treatment-free interval followed by oral lapatinib 1500mg daily for 34 weeks (52 weeks total).\n\nDesign 2: Trastuzumab (4mg/kg IV loading dose followed by 2mg/kg IV weekly) for 12 weeks administered concomitantly and either paclitaxel 80mg/m2 IV weekly for 12 weeks OR docetaxel 75mg/m2 every 21 days for 4 cycles; followed by a 6 week treatment-free interval followed by oral lapatinib 1500mg daily for 34 weeks (52 weeks total).\n\nDesign 2B: Docetaxel 75mg/m2 and carboplatin AUC 6 every 3 weeks for 6 cycles (18 weeks) administered concomitantly with trastuzumab (4mg/kg IV loading dose followed by 2mg/kg IV weekly) followed by a 6 week treatment-free interval followed by oral lapatinib 1500 mg daily for 28 weeks (52 weeks total).",
          "interventionNames": [
            "Drug: Lapatinib",
            "Biological: Trastuzumab"
          ]
        },
        {
          "label": "Lapatinib",
          "type": "EXPERIMENTAL",
          "description": "Design 1: Lapatinib 1500mg oral daily for a total of 52 weeks.\n\nDesign 2: Either paclitaxel 80mg/m2 IV weekly for 12 weeks OR docetaxel 75mg/m2 IV every 3 weeks for 4 cycles administered concomitantly with oral lapatinib at 750mg daily. After completion of chemotherapy, oral lapatinib administered at 1500mg daily for an additional 40 weeks (52 weeks total).\n\nDesign 2B: Docetaxel 75mg/m2 and carboplatin AUC 6 every 3 weeks for 6 cycles (18 weeks) administered concomitantly with oral lapatinib at 750mg daily. After completion of chemotherapy, the dose of lapatinib will be increased to 1500mg oral daily for an additional 40 weeks (52 weeks total).",
          "interventionNames": [
            "Drug: Lapatinib"
          ]
        },
        {
          "label": "Trastuzumab",
          "type": "ACTIVE_COMPARATOR",
          "description": "Design 1: Trastuzumab 8mg/kg IV loading dose followed by 6mg/kg IV every 3 weeks for a total of 52 weeks.\n\nDesign 2: Either paclitaxel 80mg/m2 IV weekly for 12 weeks OR docetaxel 75mg/m2 IV every 3 weeks for 4 cycles administered concomitantly with trastuzumab 4mg/kg IV loading dose followed by 2mg/kg IV weekly. After completion of chemotherapy, trastuzumab administered every 3 weeks (6mg/kg IV without loading dose) for an additional 40 weeks (52 weeks total).\n\nDesign 2B: Docetaxel 75mg/m2 and carboplatin AUC 6 every 3 weeks for 6 cycles (18 weeks) administered concomitantly with trastuzumab 4mg/kg IV loading dose followed by 2mg/kg IV weekly. After completion of chemotherapy, trastuzumab (6mg/kg without loading dose) every 3 weeks for an additional 40 weeks (52 weeks total).",
          "interventionNames": [
            "Biological: Trastuzumab"
          ]
        }
      ],
      "interventions": [
        {
          "type": "DRUG",
          "name": "Lapatinib",
          "description": "Small molecule inhibitor",
          "armGroupLabels": [
            "Lapatinib",
            "Lapatinib plus Trastuzumab",
            "Trastuzumab followed by Lapatinib"
          ],
          "otherNames": [
            "GW572016"
          ]
        },
        {
          "type": "BIOLOGICAL",
          "name": "Trastuzumab",
          "description": "Antibody",
          "armGroupLabels": [
            "Lapatinib plus Trastuzumab",
            "Trastuzumab",
            "Trastuzumab followed by Lapatinib"
          ]
        }
      ]
    },
    "outcomesModule": {
      "primaryOutcomes": [
        {
          "measure": "Disease-Free Survival (DFS) at the Primary Analysis",
          "description": "Disease-Free Survival (DFS) was defined as the interval between randomization and the date of first occurrence of disease recurrence (local, regional or distant), a contralateral invasive breast cancer, a second primary cancer or death without recurrence. Only deaths occurring in participants whose clinical follow-up was ongoing at the time of death and who had no recurrence, contralateral breast cancer (CBC) or second primary malignancy (SPM) reported prior to death were considered as death without recurrence. DFS was estimated using the Kaplan Meier method. The percentile data values presented here indicate the percentage (95, 90, 85, 80 and 75 percent) of participants who had disease free survival for the indicated years.",
          "timeFrame": "From randomization until the date of the first occurrence of disease recurrence, a contralateral invasive breast cancer, a second primary cancer, or death from any cause (median follow-up of 4.5 years)"
        }
      ],
      "secondaryOutcomes": [
        {
          "measure": "Disease-Free Survival (DFS) at the 10-Year Follow-Up",
          "description": "Disease-Free Survival (DFS) was defined as the interval between randomization and the date of first occurrence of disease recurrence (local, regional or distant), a contralateral invasive breast cancer, a second primary cancer or death without recurrence. Only deaths occurring in participants whose clinical follow-up was ongoing at the time of death and who had no recurrence, contralateral breast cancer (CBC) or second primary malignancy (SPM) reported prior to death were considered as death without recurrence. DFS was estimated using the Kaplan Meier method. The percentile data values presented here indicate the percentage (95, 90, 85 and 80 percent) of participants who had disease free survival for the indicated years.",
          "timeFrame": "From randomization until the date of the first occurrence of disease recurrence, a contralateral invasive breast cancer, a second primary cancer, or death from any cause, assessed up to approximately 10 years"
        },
        {
          "measure": "Overall Survival (OS) at the Primary Analysis",
          "description": "Overall Survival (OS) was defined as the time from randomization until death due to any cause. Participants who had not died were censored at the last date they were known to be alive, or date of withdrawal of consent. OS was calculated in years as (date of death minus the date of randomization +1) divided by 365.25. The percentile data values presented here indicate the percentage (99, 98, 97, 96, 95 and 90 percent) of participants who survived for the indicated years.",
          "timeFrame": "From randomization until death due to any cause (median follow-up of 4.5 years)"
        },
        {
          "measure": "Overall Survival (OS) at the 10-Year Follow-Up",
          "description": "Overall Survival (OS) was defined as the time from randomization until death due to any cause. Participants who had not died were censored at the last date they were known to be alive, or date of withdrawal of consent. OS was calculated in years as (date of death minus the date of randomization +1) divided by 365.25. The percentile data values presented here indicate the percentage (99, 98, 95 and 90 percent) of participants who survived for the indicated years.",
          "timeFrame": "From randomization until death due to any cause, assessed up to approximately 10 years"
        },
        {
          "measure": "Analysis of Time to Recurrence (TTR)",
          "description": "Time to Recurrence (TTR) was defined as the the time from randomization to breast cancer recurrence, ignoring second primary cancers (including contralateral breast cancers and non-breast second malignancies) and counting deaths without recurrence as a competing risk.",
          "timeFrame": "From randomization until the date of the first occurrence of a disease recurrence, assessed up to approximately 10 years"
        },
        {
          "measure": "Analysis of Time to Distant Recurrence (TTDR)",
          "description": "Time to Distant Recurrence (TTDR) was defined as the the time from randomization to first distant breast cancer recurrence, ignoring locoregional recurrences and second primary cancers, (including contralateral breast cancers and non-breast second malignancies ) and counting deaths without recurrence as a competing risk.",
          "timeFrame": "From randomization until the date of the first occurrence of distant recurrence, assessed up to approximately 10 years"
        },
        {
          "measure": "Analysis of Time to Central Nervous System (CNS) Recurrence",
          "description": "Time to Central Nervous System (CNS) recurrence was defined as the time from randomization to first CNS recurrence. Both brain metastasis and meningitis carcinomatosa were considered.",
          "timeFrame": "From randomization until the first central nervous system recurrence, assessed up to approximately 10 years"
        },
        {
          "measure": "Cumulative Incidence of Brain Metastases",
          "description": "The cumulative incidence of brain metastases as the first site of breast cancer recurrence among treatment arms was assessed using a hierarchy of primary type and location of first DFS event in cases where more than one event was identified simultaneously. Because diagnostic procedures for different types of recurrence could not be performed on exactly the same day, any diagnoses noted within a two month (60 day) period of the first reported event was considered as identified simultaneously for purposes of defining the type of the first event and the date of event was be regarded as the earliest of the relevant events.",
          "timeFrame": "From randomization until the date of the first occurrence of a disease recurrence, assessed up to approximately 10 years"
        }
      ]
    },
    "eligibilityModule": {
      "eligibilityCriteria": "Key Inclusion Criteria:\n\n* Patients \\>= 18 years of age with histologically confirmed, non-metastatic, operable and over expression/amplification of HER2 (3+ by IHC and/or FISH positive) primary breast cancer, treated with definitive surgery, with baseline LVEF \\>= 50%, known hormone receptor status (ER/PgR or ER alone) and ECOG performance status =\\< 1, were included.\n* For Designs 1 and 2: Patients must have had received at least four cycles of an approved anthracycline-based (neo-) adjuvant chemotherapy regimen or a protocol specified exception.\n* Approved, signed written informed consent obtained prior to any study specific screening procedures.\n\nKey Exclusion Criteria:\n\n* History of any prior (ipsi- and/or contralateral) invasive breast carcinoma, past (less than 10 years) or current history of malignant neoplasms, any clinically staged T4 tumor, or bilateral tumors.\n* Concurrent anti-cancer treatment, except hormonal therapy or radiotherapy for the present breast cancer;\n* Patients with positive or suspicious internal mammary nodes identified by sentinel node technique, which had not been irradiated or would not be irradiated, or patients with supraclavicular lymph node involvement.\n* Any prior anti-HER therapy, which includes agents that target other members of the HER family of receptors, e.g. gefitinib (Iressa)\n* (Neo-) or adjuvant chemotherapy using peripheral stem cell or bone marrow stem cell support;\n* Serious cardiac illness or medical conditions.\n* Any of the following abnormal laboratory tests immediately prior to randomization:\n\n  1. Serum total bilirubin \\>1.5 x upper limit of normal (ULN). In the case of known Gilbert's syndrome, a higher serum total bilirubin (\\<2 x ULN) was allowed;\n  2. Alanine amino transferase (ALT) or aspartate amino transferase (AST) \\>2.5 x ULN;\n  3. Alkaline phosphatase (ALP) \\>2.5 x ULN;\n  4. Serum creatinine \\>2.0 x ULN;\n  5. Total white blood cell count (WBC) \\<2.5 x 10\\^9/L;\n  6. Absolute neutrophil count \\<1.5 x 10\\^9/L;\n  7. Platelets \\<100 x 10\\^9/L.\n* Women of childbearing potential and male patients with partners of childbearing potential, who are unable or unwilling to use adequate contraceptive measures during study treatment, and pregnant or lactating women.\n* Concomitant use of CYP3A4 inhibitors or inducers.",
      "healthyVolunteers": false,
      "sex": "ALL",
      "minimumAge": "18 Years",
      "stdAges": [
        "ADULT",
        "OLDER_ADULT"
      ]
    },
    "contactsLocationsModule": {
      "overallOfficials": [
        {
          "name": "Novartis Pharmaceuticals",
          "affiliation": "Novartis Pharmaceuticals",
          "role": "STUDY_DIRECTOR"
        }
      ],
      "locations": [
        {
          "facility": "Novartis Investigative Site",
          "city": "Mobile",
          "state": "Alabama",
          "zip": "36608",
          "country": "United States",
          "geoPoint": {
            "lat": 30.69436,
            "lon": -88.04305
          }
        },
        {
          "facility": "Novartis Investigative Site",
          "city": "Anchorage",
          "state": "Alaska",
          "zip": "99508",
          "country": "United States",
          "geoPoint": {
            "lat": 61.21806,
            "lon": -149.90028
          }
        },
        {
          "facility": "Novartis Investigative Site",
          "city": "Tucson",
          "state": "Arizona",
          "zip": "85715",
          "country": "United States",
          "geoPoint": {
            "lat": 32.22174,
            "lon": -110.92648
          }
        },
        {
          "facility": "Novartis Investigative Site",
          "city": "Jonesboro",
          "state": "Arkansas",
          "zip": "72401",
          "country": "United States",
          "geoPoint": {
            "lat": 35.8423,
            "lon": -90.70428
          }
        },
        {
          "facility": "Novartis Investigative Site",
          "city": "Duarte",
          "state": "California",
          "zip": "91010",
          "country": "United States",
          "geoPoint": {
            "lat": 34.13945,
            "lon": -117.97729
          }
        },
        {
          "facility": "Novartis Investigative Site",
          "city": "Fairfield",
          "state": "California",
          "zip": "94533",
          "country": "United States",
          "geoPoint": {
            "lat": 38.24936,
            "lon": -122.03997
          }
        },
        {
          "facility": "Novartis Investigative Site",
          "city": "La Jolla",
          "state": "California",
          "zip": "92093-0987",
          "country": "United States",
          "geoPoint": {
            "lat": 32.84727,
            "lon": -117.2742
          }
        },
        {
          "facility": "Novartis Investigative Site",
          "city": "La Jolla",
          "state": "California",
          "zip": "92093",
          "country": "United States",
          "geoPoint": {
            "lat": 32.84727,
            "lon": -117.2742
          }
        },
        {
          "facility": "Novartis Investigative Site",
          "city": "Loma Linda",
          "state": "California",
          "zip": "92534",
          "country": "United States",
          "geoPoint": {
            "lat": 34.04835,
            "lon": -117.26115
          }
        },
        {
          "facility": "Novartis Investigative Site",
          "city": "Martinez",
          "state": "California",
          "zip": "94553-3156",
          "country": "United States",
          "geoPoint": {
            "lat": 38.01937,
            "lon": -122.13413
          }
        },
        {
          "facility": "Novartis Investigative Site",
          "city": "Marysville",
          "state": "California",
          "zip": "95901",
          "country": "United States",
          "geoPoint": {
            "lat": 39.14573,
            "lon": -121.59135
          }
        },
        {
          "facility": "Novartis Investigative Site",
          "city": "Mountain View",
          "state": "California",
          "zip": "94040",
          "country": "United States",
          "geoPoint": {
            "lat": 37.38605,
            "lon": -122.08385
          }
        },
        {
          "facility": "Novartis Investigative Site",
          "city": "Oakland",
          "state": "California",
          "zip": "94609",
          "country": "United States",
          "geoPoint": {
            "lat": 37.80437,
            "lon": -122.2708
          }
        },
        {
          "facility": "Novartis Investigative Site",
          "city": "Pleasanton",
          "state": "California",
          "zip": "94588",
          "country": "United States",
          "geoPoint": {
            "lat": 37.66243,
            "lon": -121.87468
          }
        },
        {
          "facility": "Novartis Investigative Site",
          "city": "Sacramento",
          "state": "California",
          "zip": "95817",
          "country": "United States",
          "geoPoint": {
            "lat": 38.58157,
            "lon": -121.4944
          }
        },
        {
          "facility": "Novartis Investigative Site",
          "city": "San Francisco",
          "state": "California",
          "zip": "94110",
          "country": "United States",
          "geoPoint": {
            "lat": 37.77493,
            "lon": -122.41942
          }
        },
        {
          "facility": "Novartis Investigative Site",
          "city": "Aurora",
          "state": "Colorado",
          "zip": "80012",
          "country": "United States",
          "geoPoint": {
            "lat": 39.72943,
            "lon": -104.83192
          }
        },
        {
          "facility": "Novartis Investigative Site",
          "city": "Boulder",
          "state": "Colorado",
          "zip": "80301",
          "country": "United States",
          "geoPoint": {
            "lat": 40.01499,
            "lon": -105.27055
          }
        },
        {
          "facility": "Novartis Investigative Site",
          "city": "Colorado Springs",
          "state": "Colorado",
          "zip": "80907",
          "country": "United States",
          "geoPoint": {
            "lat": 38.83388,
            "lon": -104.82136
          }
        },
        {
          "facility": "Novartis Investigative Site",
          "city": "Denver",
          "state": "Colorado",
          "zip": "80210",
          "country": "United States",
          "geoPoint": {
            "lat": 39.73915,
            "lon": -104.9847
          }
        },
        {
          "facility": "Novartis Investigative Site",
          "city": "Denver",
          "state": "Colorado",
          "zip": "80218",
          "country": "United States",
          "geoPoint": {
            "lat": 39.73915,
            "lon": -104.9847
          }
        },
        {
          "facility": "Novartis Investigative Site",
          "city": "Denver",
          "state": "Colorado",
          "zip": "80220",
          "country": "United States",
          "geoPoint": {
            "lat": 39.73915,
            "lon": -104.9847
          }
        },
        {
          "facility": "Novartis Investigative Site",
          "city": "Fort Collins",
          "state": "Colorado",
          "zip": "80524",
          "country": "United States",
          "geoPoint": {
            "lat": 40.58526,
            "lon": -105.08442
          }
        },
        {
          "facility": "Novartis Investigative Site",
          "city": "Fort Collins",
          "state": "Colorado",
          "zip": "80528",
          "country": "United States",
          "geoPoint": {
            "lat": 40.58526,
            "lon": -105.08442
          }
        },
        {
          "facility": "Novartis Investigative Site",
          "city": "Thornton",
          "state": "Colorado",
          "zip": "80229",
          "country": "United States",
          "geoPoint": {
            "lat": 39.86804,
            "lon": -104.97192
          }
        },
        {
          "facility": "Novartis Investigative Site",
          "city": "Wheat Ridge",
          "state": "Colorado",
          "zip": "80033",
          "country": "United States",
          "geoPoint": {
            "lat": 39.7661,
            "lon": -105.07721
          }
        },
        {
          "facility": "Novartis Investigative Site",
          "city": "Hartford",
          "state": "Connecticut",
          "zip": "06105",
          "country": "United States",
          "geoPoint": {
            "lat": 41.76371,
            "lon": -72.68509
          }
        },
        {
          "facility": "Novartis Investigative Site",
          "city": "New Haven",
          "state": "Connecticut",
          "zip": "06520",
          "country": "United States",
          "geoPoint": {
            "lat": 41.30815,
            "lon": -72.92816
          }
        },
        {
          "facility": "Novartis Investigative Site",
          "city": "Dover",
          "state": "Delaware",
          "zip": "19901",
          "country": "United States",
          "geoPoint": {
            "lat": 39.15817,
            "lon": -75.52437
          }
        },
        {
          "facility": "Novartis Investigative Site",
          "city": "Washington D.C.",
          "state": "District of Columbia",
          "zip": "20007",
          "country": "United States",
          "geoPoint": {
            "lat": 38.89511,
            "lon": -77.03637
          }
        },
        {
          "facility": "Novartis Investigative Site",
          "city": "Washington D.C.",
          "state": "District of Columbia",
          "zip": "20307",
          "country": "United States",
          "geoPoint": {
            "lat": 38.89511,
            "lon": -77.03637
          }
        },
        {
          "facility": "Novartis Investigative Site",
          "city": "Boca Raton",
          "state": "Florida",
          "zip": "33486",
          "country": "United States",
          "geoPoint": {
            "lat": 26.35869,
            "lon": -80.0831
          }
        },
        {
          "facility": "Novartis Investigative Site",
          "city": "Fort Lauderdale",
          "state": "Florida",
          "zip": "33308",
          "country": "United States",
          "geoPoint": {
            "lat": 26.12231,
            "lon": -80.14338
          }
        },
        {
          "facility": "Novartis Investigative Site",
          "city": "Fort Myers",
          "state": "Florida",
          "zip": "33916",
          "country": "United States",
          "geoPoint": {
            "lat": 26.62168,
            "lon": -81.84059
          }
        },
        {
          "facility": "Novartis Investigative Site",
          "city": "Hollywood",
          "state": "Florida",
          "zip": "33021",
          "country": "United States",
          "geoPoint": {
            "lat": 26.0112,
            "lon": -80.14949
          }
        },
        {
          "facility": "Novartis Investigative Site",
          "city": "Jacksonville",
          "state": "Florida",
          "zip": "32207",
          "country": "United States",
          "geoPoint": {
            "lat": 30.33218,
            "lon": -81.65565
          }
        },
        {
          "facility": "Novartis Investigative Site",
          "city": "Jacksonville",
          "state": "Florida",
          "zip": "32224",
          "country": "United States",
          "geoPoint": {
            "lat": 30.33218,
            "lon": -81.65565
          }
        },
        {
          "facility": "Novartis Investigative Site",
          "city": "Lakeland",
          "state": "Florida",
          "zip": "33805",
          "country": "United States",
          "geoPoint": {
            "lat": 28.03947,
            "lon": -81.9498
          }
        },
        {
          "facility": "Novartis Investigative Site",
          "city": "Ocala",
          "state": "Florida",
          "zip": "34474",
          "country": "United States",
          "geoPoint": {
            "lat": 29.1872,
            "lon": -82.14009
          }
        },
        {
          "facility": "Novartis Investigative Site",
          "city": "Orlando",
          "state": "Florida",
          "zip": "32803",
          "country": "United States",
          "geoPoint": {
            "lat": 28.53834,
            "lon": -81.37924
          }
        },
        {
          "facility": "Novartis Investigative Site",
          "city": "Orlando",
          "state": "Florida",
          "zip": "32806",
          "country": "United States",
          "geoPoint": {
            "lat": 28.53834,
            "lon": -81.37924
          }
        },
        {
          "facility": "Novartis Investigative Site",
          "city": "Weston",
          "state": "Florida",
          "zip": "33331",
          "country": "United States",
          "geoPoint": {
            "lat": 26.10037,
            "lon": -80.39977
          }
        },
        {
          "facility": "Novartis Investigative Site",
          "city": "Athens",
          "state": "Georgia",
          "zip": "30607",
          "country": "United States",
          "geoPoint": {
            "lat": 33.96095,
            "lon": -83.37794
          }
        },
        {
          "facility": "Novartis Investigative Site",
          "city": "Atlanta",
          "state": "Georgia",
          "zip": "30309",
          "country": "United States",
          "geoPoint": {
            "lat": 33.749,
            "lon": -84.38798
          }
        },
        {
          "facility": "Novartis Investigative Site",
          "city": "Atlanta",
          "state": "Georgia",
          "zip": "30342",
          "country": "United States",
          "geoPoint": {
            "lat": 33.749,
            "lon": -84.38798
          }
        },
        {
          "facility": "Novartis Investigative Site",
          "city": "Augusta",
          "state": "Georgia",
          "zip": "30912",
          "country": "United States",
          "geoPoint": {
            "lat": 33.47097,
            "lon": -81.97484
          }
        },
        {
          "facility": "Novartis Investigative Site",
          "city": "Columbus",
          "state": "Georgia",
          "zip": "31904",
          "country": "United States",
          "geoPoint": {
            "lat": 32.46098,
            "lon": -84.98771
          }
        },
        {
          "facility": "Novartis Investigative Site",
          "city": "Decatur",
          "state": "Georgia",
          "zip": "30033",
          "country": "United States",
          "geoPoint": {
            "lat": 33.77483,
            "lon": -84.29631
          }
        },
        {
          "facility": "Novartis Investigative Site",
          "city": "Savannah",
          "state": "Georgia",
          "zip": "31405",
          "country": "United States",
          "geoPoint": {
            "lat": 32.08354,
            "lon": -81.09983
          }
        },
        {
          "facility": "Novartis Investigative Site",
          "city": "Honolulu",
          "state": "Hawaii",
          "zip": "96813",
          "country": "United States",
          "geoPoint": {
            "lat": 21.30694,
            "lon": -157.85833
          }
        },
        {
          "facility": "Novartis Investigative Site",
          "city": "Honolulu",
          "state": "Hawaii",
          "zip": "96859",
          "country": "United States",
          "geoPoint": {
            "lat": 21.30694,
            "lon": -157.85833
          }
        },
        {
          "facility": "Novartis Investigative Site",
          "city": "Lihue",
          "state": "Hawaii",
          "zip": "96766",
          "country": "United States",
          "geoPoint": {
            "lat": 21.98121,
            "lon": -159.3721
          }
        },
        {
          "facility": "Novartis Investigative Site",
          "city": "Boise",
          "state": "Idaho",
          "zip": "83706",
          "country": "United States",
          "geoPoint": {
            "lat": 43.6135,
            "lon": -116.20345
          }
        },
        {
          "facility": "Novartis Investigative Site",
          "city": "Boise",
          "state": "Idaho",
          "zip": "83712",
          "country": "United States",
          "geoPoint": {
            "lat": 43.6135,
            "lon": -116.20345
          }
        },
        {
          "facility": "Novartis Investigative Site",
          "city": "Chicago",
          "state": "Illinois",
          "zip": "60611",
          "country": "United States",
          "geoPoint": {
            "lat": 41.85003,
            "lon": -87.65005
          }
        },
        {
          "facility": "Novartis Investigative Site",
          "city": "Evanston",
          "state": "Illinois",
          "zip": "60201",
          "country": "United States",
          "geoPoint": {
            "lat": 42.04114,
            "lon": -87.69006
          }
        },
        {
          "facility": "Novartis Investigative Site",
          "city": "Harvey",
          "state": "Illinois",
          "zip": "60426",
          "country": "United States",
          "geoPoint": {
            "lat": 41.61003,
            "lon": -87.64671
          }
        },
        {
          "facility": "Novartis Investigative Site",
          "city": "Kankakee",
          "state": "Illinois",
          "zip": "60901",
          "country": "United States",
          "geoPoint": {
            "lat": 41.12003,
            "lon": -87.86115
          }
        },
        {
          "facility": "Novartis Investigative Site",
          "city": "Maywood",
          "state": "Illinois",
          "zip": "60153",
          "country": "United States",
          "geoPoint": {
            "lat": 41.8792,
            "lon": -87.84312
          }
        },
        {
          "facility": "Novartis Investigative Site",
          "city": "Mount Vernon",
          "state": "Illinois",
          "zip": "62864",
          "country": "United States",
          "geoPoint": {
            "lat": 38.31727,
            "lon": -88.90312
          }
        },
        {
          "facility": "Novartis Investigative Site",
          "city": "Oak Lawn",
          "state": "Illinois",
          "zip": "60453-2699",
          "country": "United States",
          "geoPoint": {
            "lat": 41.71087,
            "lon": -87.75811
          }
        },
        {
          "facility": "Novartis Investigative Site",
          "city": "Ottawa",
          "state": "Illinois",
          "zip": "61350",
          "country": "United States",
          "geoPoint": {
            "lat": 41.34559,
            "lon": -88.84258
          }
        },
        {
          "facility": "Novartis Investigative Site",
          "city": "Pekin",
          "state": "Illinois",
          "zip": "61554",
          "country": "United States",
          "geoPoint": {
            "lat": 40.56754,
            "lon": -89.64066
          }
        },
        {
          "facility": "Novartis Investigative Site",
          "city": "Peoria",
          "state": "Illinois",
          "zip": "61615",
          "country": "United States",
          "geoPoint": {
            "lat": 40.69365,
            "lon": -89.58899
          }
        },
        {
          "facility": "Novartis Investigative Site",
          "city": "Peru",
          "state": "Illinois",
          "zip": "61354",
          "country": "United States",
          "geoPoint": {
            "lat": 41.32753,
            "lon": -89.12897
          }
        },
        {
          "facility": "Novartis Investigative Site",
          "city": "Princeton",
          "state": "Illinois",
          "zip": "61356",
          "country": "United States",
          "geoPoint": {
            "lat": 41.36809,
            "lon": -89.46481
          }
        },
        {
          "facility": "Novartis Investigative Site",
          "city": "Rockford",
          "state": "Illinois",
          "zip": "61104",
          "country": "United States",
          "geoPoint": {
            "lat": 42.27113,
            "lon": -89.094
          }
        },
        {
          "facility": "Novartis Investigative Site",
          "city": "Rockford",
          "state": "Illinois",
          "zip": "61114",
          "country": "United States",
          "geoPoint": {
            "lat": 42.27113,
            "lon": -89.094
          }
        },
        {
          "facility": "Novartis Investigative Site",
          "city": "Skokie",
          "state": "Illinois",
          "zip": "60077",
          "country": "United States",
          "geoPoint": {
            "lat": 42.03336,
            "lon": -87.73339
          }
        },
        {
          "facility": "Novartis Investigative Site",
          "city": "Springfield",
          "state": "Illinois",
          "zip": "62781-0001",
          "country": "United States",
          "geoPoint": {
            "lat": 39.80172,
            "lon": -89.64371
          }
        },
        {
          "facility": "Novartis Investigative Site",
          "city": "Urbana",
          "state": "Illinois",
          "zip": "61801",
          "country": "United States",
          "geoPoint": {
            "lat": 40.11059,
            "lon": -88.20727
          }
        },
        {
          "facility": "Novartis Investigative Site",
          "city": "Beech Grove",
          "state": "Indiana",
          "zip": "46107",
          "country": "United States",
          "geoPoint": {
            "lat": 39.72199,
            "lon": -86.08998
          }
        },
        {
          "facility": "Novartis Investigative Site",
          "city": "Fort Wayne",
          "state": "Indiana",
          "zip": "46815",
          "country": "United States",
          "geoPoint": {
            "lat": 41.1306,
            "lon": -85.12886
          }
        },
        {
          "facility": "Novartis Investigative Site",
          "city": "Indianapolis",
          "state": "Indiana",
          "zip": "46202",
          "country": "United States",
          "geoPoint": {
            "lat": 39.76838,
            "lon": -86.15804
          }
        },
        {
          "facility": "Novartis Investigative Site",
          "city": "Kokomo",
          "state": "Indiana",
          "zip": "46904",
          "country": "United States",
          "geoPoint": {
            "lat": 40.48643,
            "lon": -86.1336
          }
        },
        {
          "facility": "Novartis Investigative Site",
          "city": "Mishawaka",
          "state": "Indiana",
          "zip": "46545",
          "country": "United States",
          "geoPoint": {
            "lat": 41.66199,
            "lon": -86.15862
          }
        },
        {
          "facility": "Novartis Investigative Site",
          "city": "Muncie",
          "state": "Indiana",
          "zip": "47303",
          "country": "United States",
          "geoPoint": {
            "lat": 40.19338,
            "lon": -85.38636
          }
        },
        {
          "facility": "Novartis Investigative Site",
          "city": "South Bend",
          "state": "Indiana",
          "zip": "46601",
          "country": "United States",
          "geoPoint": {
            "lat": 41.68338,
            "lon": -86.25001
          }
        },
        {
          "facility": "Novartis Investigative Site",
          "city": "South Bend",
          "state": "Indiana",
          "zip": "46617",
          "country": "United States",
          "geoPoint": {
            "lat": 41.68338,
            "lon": -86.25001
          }
        },
        {
          "facility": "Novartis Investigative Site",
          "city": "Ames",
          "state": "Iowa",
          "zip": "50010",
          "country": "United States",
          "geoPoint": {
            "lat": 42.03471,
            "lon": -93.61994
          }
        },
        {
          "facility": "Novartis Investigative Site",
          "city": "Bettendorf",
          "state": "Iowa",
          "zip": "52722",
          "country": "United States",
          "geoPoint": {
            "lat": 41.52448,
            "lon": -90.51569
          }
        },
        {
          "facility": "Novartis Investigative Site",
          "city": "Cedar Rapids",
          "state": "Iowa",
          "zip": "52402",
          "country": "United States",
          "geoPoint": {
            "lat": 42.00833,
            "lon": -91.64407
          }
        },
        {
          "facility": "Novartis Investigative Site",
          "city": "Des Moines",
          "state": "Iowa",
          "zip": "50309",
          "country": "United States",
          "geoPoint": {
            "lat": 41.60054,
            "lon": -93.60911
          }
        },
        {
          "facility": "Novartis Investigative Site",
          "city": "Des Moines",
          "state": "Iowa",
          "zip": "50314",
          "country": "United States",
          "geoPoint": {
            "lat": 41.60054,
            "lon": -93.60911
          }
        },
        {
          "facility": "Novartis Investigative Site",
          "city": "Mason City",
          "state": "Iowa",
          "country": "United States",
          "geoPoint": {
            "lat": 43.15357,
            "lon": -93.20104
          }
        },
        {
          "facility": "Novartis Investigative Site",
          "city": "Sioux City",
          "state": "Iowa",
          "zip": "51101-1733",
          "country": "United States",
          "geoPoint": {
            "lat": 42.49999,
            "lon": -96.40031
          }
        },
        {
          "facility": "Novartis Investigative Site",
          "city": "Waterloo",
          "state": "Iowa",
          "zip": "50702",
          "country": "United States",
          "geoPoint": {
            "lat": 42.49276,
            "lon": -92.34296
          }
        },
        {
          "facility": "Novartis Investigative Site",
          "city": "Chanute",
          "state": "Kansas",
          "zip": "66720",
          "country": "United States",
          "geoPoint": {
            "lat": 37.67921,
            "lon": -95.4572
          }
        },
        {
          "facility": "Novartis Investigative Site",
          "city": "El Dorado",
          "state": "Kansas",
          "zip": "67042",
          "country": "United States",
          "geoPoint": {
            "lat": 37.81724,
            "lon": -96.86225
          }
        },
        {
          "facility": "Novartis Investigative Site",
          "city": "Independence",
          "state": "Kansas",
          "zip": "67301",
          "country": "United States",
          "geoPoint": {
            "lat": 37.22424,
            "lon": -95.70831
          }
        },
        {
          "facility": "Novartis Investigative Site",
          "city": "Lawrence",
          "state": "Kansas",
          "zip": "66044",
          "country": "United States",
          "geoPoint": {
            "lat": 38.97167,
            "lon": -95.23525
          }
        },
        {
          "facility": "Novartis Investigative Site",
          "city": "Prairie Village",
          "state": "Kansas",
          "zip": "66208",
          "country": "United States",
          "geoPoint": {
            "lat": 38.99167,
            "lon": -94.63357
          }
        },
        {
          "facility": "Novartis Investigative Site",
          "city": "Pratt",
          "state": "Kansas",
          "zip": "67124",
          "country": "United States",
          "geoPoint": {
            "lat": 37.64391,
            "lon": -98.73759
          }
        },
        {
          "facility": "Novartis Investigative Site",
          "city": "Topeka",
          "state": "Kansas",
          "zip": "66604",
          "country": "United States",
          "geoPoint": {
            "lat": 39.04833,
            "lon": -95.67804
          }
        },
        {
          "facility": "Novartis Investigative Site",
          "city": "Topeka",
          "state": "Kansas",
          "zip": "66606",
          "country": "United States",
          "geoPoint": {
            "lat": 39.04833,
            "lon": -95.67804
          }
        },
        {
          "facility": "Novartis Investigative Site",
          "city": "Wichita",
          "state": "Kansas",
          "zip": "67214",
          "country": "United States",
          "geoPoint": {
            "lat": 37.69224,
            "lon": -97.33754
          }
        },
        {
          "facility": "Novartis Investigative Site",
          "city": "Louisville",
          "state": "Kentucky",
          "zip": "40292",
          "country": "United States",
          "geoPoint": {
            "lat": 38.25424,
            "lon": -85.75941
          }
        },
        {
          "facility": "Novartis Investigative Site",
          "city": "Baton Rouge",
          "state": "Louisiana",
          "zip": "70809",
          "country": "United States",
          "geoPoint": {
            "lat": 30.44332,
            "lon": -91.18747
          }
        },
        {
          "facility": "Novartis Investigative Site",
          "city": "New Orleans",
          "state": "Louisiana",
          "zip": "70112",
          "country": "United States",
          "geoPoint": {
            "lat": 29.95465,
            "lon": -90.07507
          }
        },
        {
          "facility": "Novartis Investigative Site",
          "city": "New Orleans",
          "state": "Louisiana",
          "zip": "70121",
          "country": "United States",
          "geoPoint": {
            "lat": 29.95465,
            "lon": -90.07507
          }
        },
        {
          "facility": "Novartis Investigative Site",
          "city": "Portland",
          "state": "Maine",
          "zip": "04101",
          "country": "United States",
          "geoPoint": {
            "lat": 43.65737,
            "lon": -70.2589
          }
        },
        {
          "facility": "Novartis Investigative Site",
          "city": "Scarborough",
          "state": "Maine",
          "zip": "04074",
          "country": "United States",
          "geoPoint": {
            "lat": 43.57814,
            "lon": -70.32172
          }
        },
        {
          "facility": "Novartis Investigative Site",
          "city": "Baltimore",
          "state": "Maryland",
          "zip": "21201",
          "country": "United States",
          "geoPoint": {
            "lat": 39.29038,
            "lon": -76.61219
          }
        },
        {
          "facility": "Novartis Investigative Site",
          "city": "Baltimore",
          "state": "Maryland",
          "zip": "21287-8936",
          "country": "United States",
          "geoPoint": {
            "lat": 39.29038,
            "lon": -76.61219
          }
        },
        {
          "facility": "Novartis Investigative Site",
          "city": "Bethesda",
          "state": "Maryland",
          "zip": "20889-5600",
          "country": "United States",
          "geoPoint": {
            "lat": 38.98067,
            "lon": -77.10026
          }
        },
        {
          "facility": "Novartis Investigative Site",
          "city": "Frederick",
          "state": "Maryland",
          "zip": "21701",
          "country": "United States",
          "geoPoint": {
            "lat": 39.41427,
            "lon": -77.41054
          }
        },
        {
          "facility": "Novartis Investigative Site",
          "city": "Silver Spring",
          "state": "Maryland",
          "zip": "20910",
          "country": "United States",
          "geoPoint": {
            "lat": 38.99067,
            "lon": -77.02609
          }
        },
        {
          "facility": "Novartis Investigative Site",
          "city": "Towson",
          "state": "Maryland",
          "zip": "21204",
          "country": "United States",
          "geoPoint": {
            "lat": 39.4015,
            "lon": -76.60191
          }
        },
        {
          "facility": "Novartis Investigative Site",
          "city": "Westminster",
          "state": "Maryland",
          "zip": "21157",
          "country": "United States",
          "geoPoint": {
            "lat": 39.57538,
            "lon": -76.99581
          }
        },
        {
          "facility": "Novartis Investigative Site",
          "city": "Boston",
          "state": "Massachusetts",
          "zip": "02135",
          "country": "United States",
          "geoPoint": {
            "lat": 42.35843,
            "lon": -71.05977
          }
        },
        {
          "facility": "Novartis Investigative Site",
          "city": "Hyannis",
          "state": "Massachusetts",
          "zip": "02601",
          "country": "United States",
          "geoPoint": {
            "lat": 41.65289,
            "lon": -70.2828
          }
        },
        {
          "facility": "Novartis Investigative Site",
          "city": "Peabody",
          "state": "Massachusetts",
          "zip": "01960",
          "country": "United States",
          "geoPoint": {
            "lat": 42.52787,
            "lon": -70.92866
          }
        },
        {
          "facility": "Novartis Investigative Site",
          "city": "Adrian",
          "state": "Michigan",
          "zip": "49221",
          "country": "United States",
          "geoPoint": {
            "lat": 41.89755,
            "lon": -84.03717
          }
        },
        {
          "facility": "Novartis Investigative Site",
          "city": "Ann Arbor",
          "state": "Michigan",
          "zip": "48106-0995",
          "country": "United States",
          "geoPoint": {
            "lat": 42.27756,
            "lon": -83.74088
          }
        },
        {
          "facility": "Novartis Investigative Site",
          "city": "Dearborn",
          "state": "Michigan",
          "zip": "48123",
          "country": "United States",
          "geoPoint": {
            "lat": 42.32226,
            "lon": -83.17631
          }
        },
        {
          "facility": "Novartis Investigative Site",
          "city": "Detroit",
          "state": "Michigan",
          "zip": "48202",
          "country": "United States",
          "geoPoint": {
            "lat": 42.33143,
            "lon": -83.04575
          }
        },
        {
          "facility": "Novartis Investigative Site",
          "city": "Flint",
          "state": "Michigan",
          "zip": "48532",
          "country": "United States",
          "geoPoint": {
            "lat": 43.01253,
            "lon": -83.68746
          }
        },
        {
          "facility": "Novartis Investigative Site",
          "city": "Iron Mountain",
          "state": "Michigan",
          "zip": "49801",
          "country": "United States",
          "geoPoint": {
            "lat": 45.82023,
            "lon": -88.06596
          }
        },
        {
          "facility": "Novartis Investigative Site",
          "city": "Kalamazoo",
          "state": "Michigan",
          "zip": "49007",
          "country": "United States",
          "geoPoint": {
            "lat": 42.29171,
            "lon": -85.58723
          }
        },
        {
          "facility": "Novartis Investigative Site",
          "city": "Pontiac",
          "state": "Michigan",
          "zip": "48341-2985",
          "country": "United States",
          "geoPoint": {
            "lat": 42.63892,
            "lon": -83.29105
          }
        },
        {
          "facility": "Novartis Investigative Site",
          "city": "Saginaw",
          "state": "Michigan",
          "zip": "48601",
          "country": "United States",
          "geoPoint": {
            "lat": 43.41947,
            "lon": -83.95081
          }
        },
        {
          "facility": "Novartis Investigative Site",
          "city": "Saint Joseph",
          "state": "Michigan",
          "zip": "49085",
          "country": "United States",
          "geoPoint": {
            "lat": 42.10976,
            "lon": -86.48002
          }
        },
        {
          "facility": "Novartis Investigative Site",
          "city": "Southfield",
          "state": "Michigan",
          "zip": "48075",
          "country": "United States",
          "geoPoint": {
            "lat": 42.47337,
            "lon": -83.22187
          }
        },
        {
          "facility": "Novartis Investigative Site",
          "city": "Albert Lea",
          "state": "Minnesota",
          "zip": "56007",
          "country": "United States",
          "geoPoint": {
            "lat": 43.64801,
            "lon": -93.36827
          }
        },
        {
          "facility": "Novartis Investigative Site",
          "city": "Duluth",
          "state": "Minnesota",
          "zip": "55805",
          "country": "United States",
          "geoPoint": {
            "lat": 46.78327,
            "lon": -92.10658
          }
        },
        {
          "facility": "Novartis Investigative Site",
          "city": "Edina",
          "state": "Minnesota",
          "zip": "55435",
          "country": "United States",
          "geoPoint": {
            "lat": 44.88969,
            "lon": -93.34995
          }
        },
        {
          "facility": "Novartis Investigative Site",
          "city": "Mankato",
          "state": "Minnesota",
          "zip": "56002",
          "country": "United States",
          "geoPoint": {
            "lat": 44.15906,
            "lon": -94.00915
          }
        },
        {
          "facility": "Novartis Investigative Site",
          "city": "Maplewood",
          "state": "Minnesota",
          "zip": "55109",
          "country": "United States",
          "geoPoint": {
            "lat": 44.95302,
            "lon": -92.99522
          }
        },
        {
          "facility": "Novartis Investigative Site",
          "city": "Minneapolis",
          "state": "Minnesota",
          "zip": "55407-3799",
          "country": "United States",
          "geoPoint": {
            "lat": 44.97997,
            "lon": -93.26384
          }
        },
        {
          "facility": "Novartis Investigative Site",
          "city": "Minneapolis",
          "state": "Minnesota",
          "zip": "55415",
          "country": "United States",
          "geoPoint": {
            "lat": 44.97997,
            "lon": -93.26384
          }
        },
        {
          "facility": "Novartis Investigative Site",
          "city": "Saint Cloud",
          "state": "Minnesota",
          "zip": "56303",
          "country": "United States",
          "geoPoint": {
            "lat": 45.5608,
            "lon": -94.16249
          }
        },
        {
          "facility": "Novartis Investigative Site",
          "city": "Saint Louis Park",
          "state": "Minnesota",
          "zip": "55416",
          "country": "United States",
          "geoPoint": {
            "lat": 44.9483,
            "lon": -93.34801
          }
        },
        {
          "facility": "Novartis Investigative Site",
          "city": "Saint Paul",
          "state": "Minnesota",
          "zip": "55101",
          "country": "United States",
          "geoPoint": {
            "lat": 44.94441,
            "lon": -93.09327
          }
        },
        {
          "facility": "Novartis Investigative Site",
          "city": "Saint Paul",
          "state": "Minnesota",
          "zip": "55102",
          "country": "United States",
          "geoPoint": {
            "lat": 44.94441,
            "lon": -93.09327
          }
        },
        {
          "facility": "Novartis Investigative Site",
          "city": "Shakopee",
          "state": "Minnesota",
          "zip": "55379",
          "country": "United States",
          "geoPoint": {
            "lat": 44.79802,
            "lon": -93.5269
          }
        },
        {
          "facility": "Novartis Investigative Site",
          "city": "Waconia",
          "state": "Minnesota",
          "zip": "55387",
          "country": "United States",
          "geoPoint": {
            "lat": 44.8508,
            "lon": -93.78691
          }
        },
        {
          "facility": "Novartis Investigative Site",
          "city": "Willmar",
          "state": "Minnesota",
          "zip": "56201",
          "country": "United States",
          "geoPoint": {
            "lat": 45.12191,
            "lon": -95.04334
          }
        },
        {
          "facility": "Novartis Investigative Site",
          "city": "Pascagoula",
          "state": "Mississippi",
          "zip": "39581",
          "country": "United States",
          "geoPoint": {
            "lat": 30.36576,
            "lon": -88.55613
          }
        },
        {
          "facility": "Novartis Investigative Site",
          "city": "Kansas City",
          "state": "Missouri",
          "zip": "64131",
          "country": "United States",
          "geoPoint": {
            "lat": 39.09973,
            "lon": -94.57857
          }
        },
        {
          "facility": "Novartis Investigative Site",
          "city": "Springfield",
          "state": "Missouri",
          "zip": "65807",
          "country": "United States",
          "geoPoint": {
            "lat": 37.21533,
            "lon": -93.29824
          }
        },
        {
          "facility": "Novartis Investigative Site",
          "city": "St Louis",
          "state": "Missouri",
          "zip": "63110",
          "country": "United States",
          "geoPoint": {
            "lat": 38.62727,
            "lon": -90.19789
          }
        },
        {
          "facility": "Novartis Investigative Site",
          "city": "Billings",
          "state": "Montana",
          "zip": "59101",
          "country": "United States",
          "geoPoint": {
            "lat": 45.78329,
            "lon": -108.50069
          }
        },
        {
          "facility": "Novartis Investigative Site",
          "city": "Bozeman",
          "state": "Montana",
          "zip": "59715",
          "country": "United States",
          "geoPoint": {
            "lat": 45.67965,
            "lon": -111.03856
          }
        },
        {
          "facility": "Novartis Investigative Site",
          "city": "Great Falls",
          "state": "Montana",
          "zip": "59405",
          "country": "United States",
          "geoPoint": {
            "lat": 47.50024,
            "lon": -111.30081
          }
        },
        {
          "facility": "Novartis Investigative Site",
          "city": "Grand Island",
          "state": "Nebraska",
          "zip": "68803",
          "country": "United States",
          "geoPoint": {
            "lat": 40.92501,
            "lon": -98.34201
          }
        },
        {
          "facility": "Novartis Investigative Site",
          "city": "Lincoln",
          "state": "Nebraska",
          "zip": "68510",
          "country": "United States",
          "geoPoint": {
            "lat": 40.8,
            "lon": -96.66696
          }
        },
        {
          "facility": "Novartis Investigative Site",
          "city": "Omaha",
          "state": "Nebraska",
          "zip": "68106",
          "country": "United States",
          "geoPoint": {
            "lat": 41.25626,
            "lon": -95.94043
          }
        },
        {
          "facility": "Novartis Investigative Site",
          "city": "Omaha",
          "state": "Nebraska",
          "zip": "68114",
          "country": "United States",
          "geoPoint": {
            "lat": 41.25626,
            "lon": -95.94043
          }
        },
        {
          "facility": "Novartis Investigative Site",
          "city": "Omaha",
          "state": "Nebraska",
          "zip": "68122",
          "country": "United States",
          "geoPoint": {
            "lat": 41.25626,
            "lon": -95.94043
          }
        },
        {
          "facility": "Novartis Investigative Site",
          "city": "Omaha",
          "state": "Nebraska",
          "zip": "68124",
          "country": "United States",
          "geoPoint": {
            "lat": 41.25626,
            "lon": -95.94043
          }
        },
        {
          "facility": "Novartis Investigative Site",
          "city": "Omaha",
          "state": "Nebraska",
          "zip": "68131",
          "country": "United States",
          "geoPoint": {
            "lat": 41.25626,
            "lon": -95.94043
          }
        },
        {
          "facility": "Novartis Investigative Site",
          "city": "Omaha",
          "state": "Nebraska",
          "zip": "68198",
          "country": "United States",
          "geoPoint": {
            "lat": 41.25626,
            "lon": -95.94043
          }
        },
        {
          "facility": "Novartis Investigative Site",
          "city": "Las Vegas",
          "state": "Nevada",
          "zip": "89169",
          "country": "United States",
          "geoPoint": {
            "lat": 36.17497,
            "lon": -115.13722
          }
        },
        {
          "facility": "Novartis Investigative Site",
          "city": "Concord",
          "state": "New Hampshire",
          "zip": "03301",
          "country": "United States",
          "geoPoint": {
            "lat": 43.20814,
            "lon": -71.53757
          }
        },
        {
          "facility": "Novartis Investigative Site",
          "city": "Hooksett",
          "state": "New Hampshire",
          "zip": "03106",
          "country": "United States",
          "geoPoint": {
            "lat": 43.09675,
            "lon": -71.46507
          }
        },
        {
          "facility": "Novartis Investigative Site",
          "city": "Laconia",
          "state": "New Hampshire",
          "zip": "03246",
          "country": "United States",
          "geoPoint": {
            "lat": 43.52785,
            "lon": -71.47035
          }
        },
        {
          "facility": "Novartis Investigative Site",
          "city": "Lebanon",
          "state": "New Hampshire",
          "zip": "03756",
          "country": "United States",
          "geoPoint": {
            "lat": 43.64229,
            "lon": -72.25176
          }
        },
        {
          "facility": "Novartis Investigative Site",
          "city": "Hackensack",
          "state": "New Jersey",
          "zip": "07601",
          "country": "United States",
          "geoPoint": {
            "lat": 40.88593,
            "lon": -74.04347
          }
        },
        {
          "facility": "Novartis Investigative Site",
          "city": "Livingston",
          "state": "New Jersey",
          "zip": "07039",
          "country": "United States",
          "geoPoint": {
            "lat": 40.79593,
            "lon": -74.31487
          }
        },
        {
          "facility": "Novartis Investigative Site",
          "city": "New Brunswick",
          "state": "New Jersey",
          "zip": "08901",
          "country": "United States",
          "geoPoint": {
            "lat": 40.48622,
            "lon": -74.45182
          }
        },
        {
          "facility": "Novartis Investigative Site",
          "city": "Princeton",
          "state": "New Jersey",
          "zip": "24740",
          "country": "United States",
          "geoPoint": {
            "lat": 40.34872,
            "lon": -74.65905
          }
        },
        {
          "facility": "Novartis Investigative Site",
          "city": "Somerville",
          "state": "New Jersey",
          "zip": "08876",
          "country": "United States",
          "geoPoint": {
            "lat": 40.57427,
            "lon": -74.60988
          }
        },
        {
          "facility": "Novartis Investigative Site",
          "city": "Sparta",
          "state": "New Jersey",
          "zip": "07871",
          "country": "United States",
          "geoPoint": {
            "lat": 41.03343,
            "lon": -74.63849
          }
        },
        {
          "facility": "Novartis Investigative Site",
          "city": "Vineland",
          "state": "New Jersey",
          "zip": "08360",
          "country": "United States",
          "geoPoint": {
            "lat": 39.48623,
            "lon": -75.02573
          }
        },
        {
          "facility": "Novartis Investigative Site",
          "city": "Albuquerque",
          "state": "New Mexico",
          "zip": "87106",
          "country": "United States",
          "geoPoint": {
            "lat": 35.08449,
            "lon": -106.65114
          }
        },
        {
          "facility": "Novartis Investigative Site",
          "city": "Albuquerque",
          "state": "New Mexico",
          "zip": "87110",
          "country": "United States",
          "geoPoint": {
            "lat": 35.08449,
            "lon": -106.65114
          }
        },
        {
          "facility": "Novartis Investigative Site",
          "city": "Las Cruces",
          "state": "New Mexico",
          "zip": "88011",
          "country": "United States",
          "geoPoint": {
            "lat": 32.31232,
            "lon": -106.77834
          }
        },
        {
          "facility": "Novartis Investigative Site",
          "city": "Buffalo",
          "state": "New York",
          "zip": "14263",
          "country": "United States",
          "geoPoint": {
            "lat": 42.88645,
            "lon": -78.87837
          }
        },
        {
          "facility": "Novartis Investigative Site",
          "city": "Cooperstown",
          "state": "New York",
          "zip": "13326",
          "country": "United States",
          "geoPoint": {
            "lat": 42.70048,
            "lon": -74.92426
          }
        },
        {
          "facility": "Novartis Investigative Site",
          "city": "East Syracuse",
          "state": "New York",
          "zip": "13057",
          "country": "United States",
          "geoPoint": {
            "lat": 43.06534,
            "lon": -76.07853
          }
        },
        {
          "facility": "Novartis Investigative Site",
          "city": "Manhasset",
          "state": "New York",
          "zip": "11030",
          "country": "United States",
          "geoPoint": {
            "lat": 40.79788,
            "lon": -73.69957
          }
        },
        {
          "facility": "Novartis Investigative Site",
          "city": "New York",
          "state": "New York",
          "zip": "10003",
          "country": "United States",
          "geoPoint": {
            "lat": 40.71427,
            "lon": -74.00597
          }
        },
        {
          "facility": "Novartis Investigative Site",
          "city": "New York",
          "state": "New York",
          "zip": "10011",
          "country": "United States",
          "geoPoint": {
            "lat": 40.71427,
            "lon": -74.00597
          }
        },
        {
          "facility": "Novartis Investigative Site",
          "city": "New York",
          "state": "New York",
          "zip": "10016",
          "country": "United States",
          "geoPoint": {
            "lat": 40.71427,
            "lon": -74.00597
          }
        },
        {
          "facility": "Novartis Investigative Site",
          "city": "New York",
          "state": "New York",
          "zip": "10032",
          "country": "United States",
          "geoPoint": {
            "lat": 40.71427,
            "lon": -74.00597
          }
        },
        {
          "facility": "Novartis Investigative Site",
          "city": "Rochester",
          "state": "New York",
          "zip": "14642",
          "country": "United States",
          "geoPoint": {
            "lat": 43.15478,
            "lon": -77.61556
          }
        },
        {
          "facility": "Novartis Investigative Site",
          "city": "The Bronx",
          "state": "New York",
          "zip": "10461",
          "country": "United States",
          "geoPoint": {
            "lat": 40.84985,
            "lon": -73.86641
          }
        },
        {
          "facility": "Novartis Investigative Site",
          "city": "The Bronx",
          "state": "New York",
          "zip": "10467-2490",
          "country": "United States",
          "geoPoint": {
            "lat": 40.84985,
            "lon": -73.86641
          }
        },
        {
          "facility": "Novartis Investigative Site",
          "city": "Chapel Hill",
          "state": "North Carolina",
          "zip": "27599",
          "country": "United States",
          "geoPoint": {
            "lat": 35.9132,
            "lon": -79.05584
          }
        },
        {
          "facility": "Novartis Investigative Site",
          "city": "Hendersonville",
          "state": "North Carolina",
          "zip": "28791",
          "country": "United States",
          "geoPoint": {
            "lat": 35.31873,
            "lon": -82.46095
          }
        },
        {
          "facility": "Novartis Investigative Site",
          "city": "Kinston",
          "state": "North Carolina",
          "zip": "28501",
          "country": "United States",
          "geoPoint": {
            "lat": 35.26266,
            "lon": -77.58164
          }
        },
        {
          "facility": "Novartis Investigative Site",
          "city": "Raleigh",
          "state": "North Carolina",
          "zip": "27607",
          "country": "United States",
          "geoPoint": {
            "lat": 35.7721,
            "lon": -78.63861
          }
        },
        {
          "facility": "Novartis Investigative Site",
          "city": "Washington",
          "state": "North Carolina",
          "zip": "27889",
          "country": "United States",
          "geoPoint": {
            "lat": 35.54655,
            "lon": -77.05217
          }
        },
        {
          "facility": "Novartis Investigative Site",
          "city": "Winston-Salem",
          "state": "North Carolina",
          "zip": "27157",
          "country": "United States",
          "geoPoint": {
            "lat": 36.09986,
            "lon": -80.24422
          }
        },
        {
          "facility": "Novartis Investigative Site",
          "city": "Bismarck",
          "state": "North Dakota",
          "zip": "58501",
          "country": "United States",
          "geoPoint": {
            "lat": 46.80833,
            "lon": -100.78374
          }
        },
        {
          "facility": "Novartis Investigative Site",
          "city": "Fargo",
          "state": "North Dakota",
          "zip": "58122",
          "country": "United States",
          "geoPoint": {
            "lat": 46.87719,
            "lon": -96.7898
          }
        },
        {
          "facility": "Novartis Investigative Site",
          "city": "Minot",
          "state": "North Dakota",
          "zip": "58701",
          "country": "United States",
          "geoPoint": {
            "lat": 48.23251,
            "lon": -101.29627
          }
        },
        {
          "facility": "Novartis Investigative Site",
          "city": "Bowling Green",
          "state": "Ohio",
          "zip": "43402",
          "country": "United States",
          "geoPoint": {
            "lat": 41.37477,
            "lon": -83.65132
          }
        },
        {
          "facility": "Novartis Investigative Site",
          "city": "Canton",
          "state": "Ohio",
          "zip": "44710",
          "country": "United States",
          "geoPoint": {
            "lat": 40.79895,
            "lon": -81.37845
          }
        },
        {
          "facility": "Novartis Investigative Site",
          "city": "Chillicothe",
          "state": "Ohio",
          "zip": "54601",
          "country": "United States",
          "geoPoint": {
            "lat": 39.33312,
            "lon": -82.9824
          }
        },
        {
          "facility": "Novartis Investigative Site",
          "city": "Cincinnati",
          "state": "Ohio",
          "zip": "45242",
          "country": "United States",
          "geoPoint": {
            "lat": 39.12711,
            "lon": -84.51439
          }
        },
        {
          "facility": "Novartis Investigative Site",
          "city": "Clyde",
          "state": "Ohio",
          "zip": "43410",
          "country": "United States",
          "geoPoint": {
            "lat": 41.30422,
            "lon": -82.97519
          }
        },
        {
          "facility": "Novartis Investigative Site",
          "city": "Columbus",
          "state": "Ohio",
          "zip": "43210",
          "country": "United States",
          "geoPoint": {
            "lat": 39.96118,
            "lon": -82.99879
          }
        },
        {
          "facility": "Novartis Investigative Site",
          "city": "Columbus",
          "state": "Ohio",
          "zip": "43214",
          "country": "United States",
          "geoPoint": {
            "lat": 39.96118,
            "lon": -82.99879
          }
        },
        {
          "facility": "Novartis Investigative Site",
          "city": "Columbus",
          "state": "Ohio",
          "zip": "43215",
          "country": "United States",
          "geoPoint": {
            "lat": 39.96118,
            "lon": -82.99879
          }
        },
        {
          "facility": "Novartis Investigative Site",
          "city": "Columbus",
          "state": "Ohio",
          "zip": "43222",
          "country": "United States",
          "geoPoint": {
            "lat": 39.96118,
            "lon": -82.99879
          }
        },
        {
          "facility": "Novartis Investigative Site",
          "city": "Dayton",
          "state": "Ohio",
          "zip": "45415",
          "country": "United States",
          "geoPoint": {
            "lat": 39.75895,
            "lon": -84.19161
          }
        },
        {
          "facility": "Novartis Investigative Site",
          "city": "Franklin",
          "state": "Ohio",
          "zip": "45005-1066",
          "country": "United States",
          "geoPoint": {
            "lat": 39.55895,
            "lon": -84.30411
          }
        },
        {
          "facility": "Novartis Investigative Site",
          "city": "Greenville",
          "state": "Ohio",
          "zip": "45331",
          "country": "United States",
          "geoPoint": {
            "lat": 40.10283,
            "lon": -84.63301
          }
        },
        {
          "facility": "Novartis Investigative Site",
          "city": "Kettering",
          "state": "Ohio",
          "zip": "45429",
          "country": "United States",
          "geoPoint": {
            "lat": 39.6895,
            "lon": -84.16883
          }
        },
        {
          "facility": "Novartis Investigative Site",
          "city": "Maumee",
          "state": "Ohio",
          "zip": "43623",
          "country": "United States",
          "geoPoint": {
            "lat": 41.56283,
            "lon": -83.65382
          }
        },
        {
          "facility": "Novartis Investigative Site",
          "city": "Sandusky",
          "state": "Ohio",
          "zip": "44870",
          "country": "United States",
          "geoPoint": {
            "lat": 41.44894,
            "lon": -82.70796
          }
        },
        {
          "facility": "Novartis Investigative Site",
          "city": "Sylvania",
          "state": "Ohio",
          "zip": "43560",
          "country": "United States",
          "geoPoint": {
            "lat": 41.71894,
            "lon": -83.71299
          }
        },
        {
          "facility": "Novartis Investigative Site",
          "city": "Toledo",
          "state": "Ohio",
          "zip": "43623",
          "country": "United States",
          "geoPoint": {
            "lat": 41.66394,
            "lon": -83.55521
          }
        },
        {
          "facility": "Novartis Investigative Site",
          "city": "Oklahoma City",
          "state": "Oklahoma",
          "zip": "73120",
          "country": "United States",
          "geoPoint": {
            "lat": 35.46756,
            "lon": -97.51643
          }
        },
        {
          "facility": "Novartis Investigative Site",
          "city": "Tulsa",
          "state": "Oklahoma",
          "zip": "74136",
          "country": "United States",
          "geoPoint": {
            "lat": 36.15398,
            "lon": -95.99277
          }
        },
        {
          "facility": "Novartis Investigative Site",
          "city": "Eugene",
          "state": "Oregon",
          "zip": "97401",
          "country": "United States",
          "geoPoint": {
            "lat": 44.05207,
            "lon": -123.08675
          }
        },
        {
          "facility": "Novartis Investigative Site",
          "city": "Portland",
          "state": "Oregon",
          "zip": "97210",
          "country": "United States",
          "geoPoint": {
            "lat": 45.52345,
            "lon": -122.67621
          }
        },
        {
          "facility": "Novartis Investigative Site",
          "city": "Abington",
          "state": "Pennsylvania",
          "zip": "19001-3788",
          "country": "United States",
          "geoPoint": {
            "lat": 40.12067,
            "lon": -75.11795
          }
        },
        {
          "facility": "Novartis Investigative Site",
          "city": "Bethlehem",
          "state": "Pennsylvania",
          "zip": "18015",
          "country": "United States",
          "geoPoint": {
            "lat": 40.62593,
            "lon": -75.37046
          }
        },
        {
          "facility": "Novartis Investigative Site",
          "city": "Hershey",
          "state": "Pennsylvania",
          "zip": "17033",
          "country": "United States",
          "geoPoint": {
            "lat": 40.28592,
            "lon": -76.65025
          }
        },
        {
          "facility": "Novartis Investigative Site",
          "city": "Kingston",
          "state": "Pennsylvania",
          "zip": "18704",
          "country": "United States",
          "geoPoint": {
            "lat": 41.26175,
            "lon": -75.89686
          }
        },
        {
          "facility": "Novartis Investigative Site",
          "city": "Nashville",
          "state": "Pennsylvania",
          "zip": "37204",
          "country": "United States",
          "geoPoint": {
            "lat": 39.89927,
            "lon": -76.85247
          }
        },
        {
          "facility": "Novartis Investigative Site",
          "city": "Philadelphia",
          "state": "Pennsylvania",
          "zip": "19111",
          "country": "United States",
          "geoPoint": {
            "lat": 39.95238,
            "lon": -75.16362
          }
        },
        {
          "facility": "Novartis Investigative Site",
          "city": "Pottstown",
          "state": "Pennsylvania",
          "zip": "19464",
          "country": "United States",
          "geoPoint": {
            "lat": 40.24537,
            "lon": -75.64963
          }
        },
        {
          "facility": "Novartis Investigative Site",
          "city": "Sayre",
          "state": "Pennsylvania",
          "zip": "18840",
          "country": "United States",
          "geoPoint": {
            "lat": 41.97896,
            "lon": -76.5155
          }
        },
        {
          "facility": "Novartis Investigative Site",
          "city": "West Reading",
          "state": "Pennsylvania",
          "zip": "19611",
          "country": "United States",
          "geoPoint": {
            "lat": 40.3337,
            "lon": -75.94743
          }
        },
        {
          "facility": "Novartis Investigative Site",
          "city": "Charleston",
          "state": "South Carolina",
          "zip": "29406",
          "country": "United States",
          "geoPoint": {
            "lat": 32.77632,
            "lon": -79.93275
          }
        },
        {
          "facility": "Novartis Investigative Site",
          "city": "Greenville",
          "state": "South Carolina",
          "zip": "29605",
          "country": "United States",
          "geoPoint": {
            "lat": 34.85262,
            "lon": -82.39401
          }
        },
        {
          "facility": "Novartis Investigative Site",
          "city": "Rapid City",
          "state": "South Dakota",
          "zip": "57701",
          "country": "United States",
          "geoPoint": {
            "lat": 44.08054,
            "lon": -103.23101
          }
        },
        {
          "facility": "Novartis Investigative Site",
          "city": "Chattanooga",
          "state": "Tennessee",
          "zip": "37403",
          "country": "United States",
          "geoPoint": {
            "lat": 35.04563,
            "lon": -85.30968
          }
        },
        {
          "facility": "Novartis Investigative Site",
          "city": "Chattanooga",
          "state": "Tennessee",
          "zip": "37404",
          "country": "United States",
          "geoPoint": {
            "lat": 35.04563,
            "lon": -85.30968
          }
        },
        {
          "facility": "Novartis Investigative Site",
          "city": "Jackson",
          "state": "Tennessee",
          "zip": "38301",
          "country": "United States",
          "geoPoint": {
            "lat": 35.61452,
            "lon": -88.81395
          }
        },
        {
          "facility": "Novartis Investigative Site",
          "city": "Knoxville",
          "state": "Tennessee",
          "zip": "37920",
          "country": "United States",
          "geoPoint": {
            "lat": 35.96064,
            "lon": -83.92074
          }
        },
        {
          "facility": "Novartis Investigative Site",
          "city": "Memphis",
          "state": "Tennessee",
          "zip": "38120",
          "country": "United States",
          "geoPoint": {
            "lat": 35.14953,
            "lon": -90.04898
          }
        },
        {
          "facility": "Novartis Investigative Site",
          "city": "Nashville",
          "state": "Tennessee",
          "zip": "37203",
          "country": "United States",
          "geoPoint": {
            "lat": 36.16589,
            "lon": -86.78444
          }
        },
        {
          "facility": "Novartis Investigative Site",
          "city": "Nashville",
          "state": "Tennessee",
          "zip": "37208",
          "country": "United States",
          "geoPoint": {
            "lat": 36.16589,
            "lon": -86.78444
          }
        },
        {
          "facility": "Novartis Investigative Site",
          "city": "Nashville",
          "state": "Tennessee",
          "zip": "37232",
          "country": "United States",
          "geoPoint": {
            "lat": 36.16589,
            "lon": -86.78444
          }
        },
        {
          "facility": "Novartis Investigative Site",
          "city": "Beaumont",
          "state": "Texas",
          "zip": "77702-1449",
          "country": "United States",
          "geoPoint": {
            "lat": 30.08605,
            "lon": -94.10185
          }
        },
        {
          "facility": "Novartis Investigative Site",
          "city": "Bedford",
          "state": "Texas",
          "zip": "76022",
          "country": "United States",
          "geoPoint": {
            "lat": 32.84402,
            "lon": -97.14307
          }
        },
        {
          "facility": "Novartis Investigative Site",
          "city": "Fort Sam Houston",
          "state": "Texas",
          "zip": "78234",
          "country": "United States",
          "geoPoint": {
            "lat": 29.45303,
            "lon": -98.4417
          }
        },
        {
          "facility": "Novartis Investigative Site",
          "city": "Fort Worth",
          "state": "Texas",
          "zip": "76104",
          "country": "United States",
          "geoPoint": {
            "lat": 32.72541,
            "lon": -97.32085
          }
        },
        {
          "facility": "Novartis Investigative Site",
          "city": "Houston",
          "state": "Texas",
          "zip": "77030",
          "country": "United States",
          "geoPoint": {
            "lat": 29.76328,
            "lon": -95.36327
          }
        },
        {
          "facility": "Novartis Investigative Site",
          "city": "Lackland Air Force Base",
          "state": "Texas",
          "zip": "78236",
          "country": "United States",
          "geoPoint": {
            "lat": 29.38663,
            "lon": -98.61797
          }
        },
        {
          "facility": "Novartis Investigative Site",
          "city": "Longview",
          "state": "Texas",
          "zip": "75601",
          "country": "United States",
          "geoPoint": {
            "lat": 32.5007,
            "lon": -94.74049
          }
        },
        {
          "facility": "Novartis Investigative Site",
          "city": "McAllen",
          "state": "Texas",
          "zip": "78503-1298",
          "country": "United States",
          "geoPoint": {
            "lat": 26.20341,
            "lon": -98.23001
          }
        },
        {
          "facility": "Novartis Investigative Site",
          "city": "Mesquite",
          "state": "Texas",
          "zip": "75150",
          "country": "United States",
          "geoPoint": {
            "lat": 32.7668,
            "lon": -96.59916
          }
        },
        {
          "facility": "Novartis Investigative Site",
          "city": "Midland",
          "state": "Texas",
          "zip": "79701",
          "country": "United States",
          "geoPoint": {
            "lat": 31.99735,
            "lon": -102.07791
          }
        },
        {
          "facility": "Novartis Investigative Site",
          "city": "San Antonio",
          "state": "Texas",
          "zip": "78209",
          "country": "United States",
          "geoPoint": {
            "lat": 29.42412,
            "lon": -98.49363
          }
        },
        {
          "facility": "Novartis Investigative Site",
          "city": "San Antonio",
          "state": "Texas",
          "zip": "78229",
          "country": "United States",
          "geoPoint": {
            "lat": 29.42412,
            "lon": -98.49363
          }
        },
        {
          "facility": "Novartis Investigative Site",
          "city": "Tyler",
          "state": "Texas",
          "zip": "75702",
          "country": "United States",
          "geoPoint": {
            "lat": 32.35126,
            "lon": -95.30106
          }
        },
        {
          "facility": "Novartis Investigative Site",
          "city": "Salt Lake City",
          "state": "Utah",
          "zip": "84112",
          "country": "United States",
          "geoPoint": {
            "lat": 40.76078,
            "lon": -111.89105
          }
        },
        {
          "facility": "Novartis Investigative Site",
          "city": "Hampton",
          "state": "Virginia",
          "zip": "23666",
          "country": "United States",
          "geoPoint": {
            "lat": 37.02987,
            "lon": -76.34522
          }
        },
        {
          "facility": "Novartis Investigative Site",
          "city": "Richmond",
          "state": "Virginia",
          "zip": "23230",
          "country": "United States",
          "geoPoint": {
            "lat": 37.55376,
            "lon": -77.46026
          }
        },
        {
          "facility": "Novartis Investigative Site",
          "city": "Roanoke",
          "state": "Virginia",
          "zip": "24014",
          "country": "United States",
          "geoPoint": {
            "lat": 37.27097,
            "lon": -79.94143
          }
        },
        {
          "facility": "Novartis Investigative Site",
          "city": "Bellingham",
          "state": "Washington",
          "zip": "98225",
          "country": "United States",
          "geoPoint": {
            "lat": 48.75955,
            "lon": -122.48822
          }
        },
        {
          "facility": "Novartis Investigative Site",
          "city": "Seattle",
          "state": "Washington",
          "zip": "98122",
          "country": "United States",
          "geoPoint": {
            "lat": 47.60621,
            "lon": -122.33207
          }
        },
        {
          "facility": "Novartis Investigative Site",
          "city": "Seattle",
          "state": "Washington",
          "zip": "98133",
          "country": "United States",
          "geoPoint": {
            "lat": 47.60621,
            "lon": -122.33207
          }
        },
        {
          "facility": "Novartis Investigative Site",
          "city": "Spokane",
          "state": "Washington",
          "zip": "99218",
          "country": "United States",
          "geoPoint": {
            "lat": 47.65966,
            "lon": -117.42908
          }
        },
        {
          "facility": "Novartis Investigative Site",
          "city": "Tacoma",
          "state": "Washington",
          "zip": "98405",
          "country": "United States",
          "geoPoint": {
            "lat": 47.25288,
            "lon": -122.44429
          }
        },
        {
          "facility": "Novartis Investigative Site",
          "city": "Charleston",
          "state": "West Virginia",
          "zip": "25304",
          "country": "United States",
          "geoPoint": {
            "lat": 38.34982,
            "lon": -81.63262
          }
        },
        {
          "facility": "Novartis Investigative Site",
          "city": "Huntington",
          "state": "West Virginia",
          "zip": "25701",
          "country": "United States",
          "geoPoint": {
            "lat": 38.41925,
            "lon": -82.44515
          }
        },
        {
          "facility": "Novartis Investigative Site",
          "city": "Appleton",
          "state": "Wisconsin",
          "zip": "53715",
          "country": "United States",
          "geoPoint": {
            "lat": 44.26193,
            "lon": -88.41538
          }
        },
        {
          "facility": "Novartis Investigative Site",
          "city": "Chippewa Falls",
          "state": "Wisconsin",
          "zip": "54729",
          "country": "United States",
          "geoPoint": {
            "lat": 44.93691,
            "lon": -91.39293
          }
        },
        {
          "facility": "Novartis Investigative Site",
          "city": "Eau Claire",
          "state": "Wisconsin",
          "zip": "54702",
          "country": "United States",
          "geoPoint": {
            "lat": 44.81135,
            "lon": -91.49849
          }
        },
        {
          "facility": "Novartis Investigative Site",
          "city": "Green Bay",
          "state": "Wisconsin",
          "zip": "54301",
          "country": "United States",
          "geoPoint": {
            "lat": 44.51916,
            "lon": -88.01983
          }
        },
        {
          "facility": "Novartis Investigative Site",
          "city": "La Crosse",
          "state": "Wisconsin",
          "zip": "54601",
          "country": "United States",
          "geoPoint": {
            "lat": 43.80136,
            "lon": -91.23958
          }
        },
        {
          "facility": "Novartis Investigative Site",
          "city": "Madison",
          "state": "Wisconsin",
          "zip": "53717",
          "country": "United States",
          "geoPoint": {
            "lat": 43.07305,
            "lon": -89.40123
          }
        },
        {
          "facility": "Novartis Investigative Site",
          "city": "Oshkosh",
          "state": "Wisconsin",
          "zip": "54904",
          "country": "United States",
          "geoPoint": {
            "lat": 44.02471,
            "lon": -88.54261
          }
        },
        {
          "facility": "Novartis Investigative Site",
          "city": "Sturgeon Bay",
          "state": "Wisconsin",
          "zip": "54235",
          "country": "United States",
          "geoPoint": {
            "lat": 44.83416,
            "lon": -87.37704
          }
        },
        {
          "facility": "Novartis Investigative Site",
          "city": "Berazategui",
          "zip": "B1880BBF",
          "country": "Argentina",
          "geoPoint": {
            "lat": -34.76531,
            "lon": -58.21278
          }
        },
        {
          "facility": "Novartis Investigative Site",
          "city": "Buenos Aires",
          "zip": "C1125ABD",
          "country": "Argentina",
          "geoPoint": {
            "lat": -34.61315,
            "lon": -58.37723
          }
        },
        {
          "facility": "Novartis Investigative Site",
          "city": "Buenos Aires",
          "zip": "C1185AAT",
          "country": "Argentina",
          "geoPoint": {
            "lat": -34.61315,
            "lon": -58.37723
          }
        },
        {
          "facility": "Novartis Investigative Site",
          "city": "Buenos Aires",
          "zip": "C1417DTN",
          "country": "Argentina",
          "geoPoint": {
            "lat": -34.61315,
            "lon": -58.37723
          }
        },
        {
          "facility": "Novartis Investigative Site",
          "city": "Mendoza",
          "zip": "M5500AYB",
          "country": "Argentina",
          "geoPoint": {
            "lat": -32.88946,
            "lon": -68.84582
          }
        },
        {
          "facility": "Novartis Investigative Site",
          "city": "Quilmes",
          "zip": "1878",
          "country": "Argentina",
          "geoPoint": {
            "lat": -34.72065,
            "lon": -58.25454
          }
        },
        {
          "facility": "Novartis Investigative Site",
          "city": "Rosario",
          "zip": "S2000KZE",
          "country": "Argentina",
          "geoPoint": {
            "lat": -32.94682,
            "lon": -60.63932
          }
        },
        {
          "facility": "Novartis Investigative Site",
          "city": "San Miguel de Tucum\u00e1n",
          "zip": "4000",
          "country": "Argentina",
          "geoPoint": {
            "lat": -26.81601,
            "lon": -65.21051
          }
        },
        {
          "facility": "Novartis Investigative Site",
          "city": "Santa Fe",
          "zip": "3000",
          "country": "Argentina",
          "geoPoint": {
            "lat": -31.64881,
            "lon": -60.70868
          }
        },
        {
          "facility": "Novartis Investigative Site",
          "city": "Box Hill",
          "state": "Victoria",
          "zip": "3128",
          "country": "Australia",
          "geoPoint": {
            "lat": -37.81887,
            "lon": 145.12545
          }
        },
        {
          "facility": "Novartis Investigative Site",
          "city": "Adelaide",
          "zip": "5000",
          "country": "Australia",
          "geoPoint": {
            "lat": -34.92866,
            "lon": 138.59863
          }
        },
        {
          "facility": "Novartis Investigative Site",
          "city": "Bedford Park",
          "zip": "5042",
          "country": "Australia",
          "geoPoint": {
            "lat": -35.02204,
            "lon": 138.56815
          }
        },
        {
          "facility": "Novartis Investigative Site",
          "city": "Bunbury",
          "zip": "6230",
          "country": "Australia",
          "geoPoint": {
            "lat": -33.32711,
            "lon": 115.64137
          }
        },
        {
          "facility": "Novartis Investigative Site",
          "city": "Campbelltown",
          "zip": "2560",
          "country": "Australia",
          "geoPoint": {
            "lat": -34.06667,
            "lon": 150.81667
          }
        },
        {
          "facility": "Novartis Investigative Site",
          "city": "Camperdown",
          "zip": "2050",
          "country": "Australia",
          "geoPoint": {
            "lat": -33.88965,
            "lon": 151.17642
          }
        },